WeatherPy_Database,City,Country,Lat,Lng,Max Temp,Humidity,Cloudiness,Wind Speed,Current Description
0,Puerto Ayora,EC,-0.7393,-90.3518,71.55,98,62,1.01,Clouds
1,Tuzha,RU,57.6062,47.936,19.49,95,100,11.45,Snow
2,Hobart,AU,-42.8794,147.3294,74.26,67,20,18.41,Clouds
3,Bluff,NZ,-46.6,168.3333,54.75,65,4,15.57,Clear
4,Oga,IT,46.4631,10.347,43.03,78,100,3.94,Clouds
5,Zhangye,CN,38.9342,100.4517,27.16,30,15,10.22,Clouds
6,Richards Bay,ZA,-28.783,32.0377,75.54,62,44,10.0,Clouds
7,Hermanus,ZA,-34.4187,19.2345,76.8,55,31,16.96,Clouds
8,Airai,TL,-8.9266,125.4092,62.64,94,100,6.67,Clouds
9,Atuona,PF,-9.8,-139.0333,77.88,69,2,18.7,Clear
10,Vicuna,CL,-30.0319,-70.7081,55.13,85,12,1.88,Clouds
11,Isangel,VU,-19.55,169.2667,80.44,82,11,12.57,Clouds
12,Gao,ML,16.6362,1.637,68.11,12,47,17.2,Clouds
13,Mildura,AU,-34.2,142.15,97.07,30,0,7.96,Clear
14,Fowa,NG,8.9167,6.4,80.71,16,92,1.77,Clouds
15,Rikitea,PF,-23.1203,-134.9692,77.61,71,68,5.3,Clouds
16,Gornozavodsk,RU,58.3758,58.3211,-2.61,88,85,10.09,Clouds
17,Butaritari,KI,3.0707,172.7902,81.07,79,80,13.91,Clouds
18,Upernavik,GL,72.7868,-56.1549,-11.58,90,100,4.25,Clouds
19,Moctezuma,MX,29.8,-109.6667,52.43,74,1,1.43,Clear
20,Mataura,NZ,-46.1927,168.8643,51.19,73,31,3.94,Clouds
21,Sistranda,NO,63.7256,8.834,39.16,89,100,35.32,Rain
22,Salinopolis,BR,-0.6136,-47.3561,77.76,85,96,7.7,Clouds
23,Ossora,RU,59.2353,163.0719,-3.71,96,97,6.31,Clouds
24,Varva,UA,50.495,32.7197,36.95,85,12,6.76,Clouds
25,Tasiilaq,GL,65.6145,-37.6368,3.36,57,0,7.02,Clear
26,Buenos Aires,AR,-34.6132,-58.3772,76.73,36,0,10.36,Clear
27,Waipawa,NZ,-41.4122,175.5153,50.16,75,18,3.78,Clouds
28,Kavaratti,IN,10.5669,72.642,81.52,65,0,3.87,Clear
29,Avarua,CK,-21.2078,-159.775,75.25,88,75,4.61,Clouds
30,Clyde River,CA,70.4692,-68.5914,-18.17,69,20,20.71,Haze
31,East London,ZA,-33.0153,27.9116,77.94,57,20,10.36,Clouds
32,Carquefou,FR,47.2982,-1.4902,59.07,80,0,9.22,Clear
33,Teya,RU,60.3778,92.6267,-9.76,96,98,3.04,Clouds
34,Manturovo,RU,58.3353,44.7619,22.41,96,100,6.06,Clouds
35,Pevek,RU,69.7008,170.3133,-37.91,99,56,4.85,Clouds
36,Ushuaia,AR,-54.8,-68.3,40.66,75,0,5.75,Clear
37,Harper,LR,4.375,-7.7169,78.84,75,1,7.25,Clear
38,Vaini,TO,-21.2,-175.2,77.16,100,100,2.3,Rain
39,Lufilufi,WS,-13.8745,-171.5986,78.58,73,53,5.1,Clouds
40,Olafsvik,IS,64.8945,-23.7142,28.58,80,100,5.86,Snow
41,Hilo,US,19.7297,-155.09,71.62,91,75,8.05,Rain
42,Gobabis,NA,-22.45,18.9667,81.75,37,44,10.27,Clouds
43,Banda Aceh,ID,5.5577,95.3222,80.31,71,100,14.83,Clouds
44,Tutoia,BR,-2.7619,-42.2744,76.51,89,100,10.45,Clouds
45,Zambezi,ZM,-13.5432,23.1047,67.15,91,100,5.19,Rain
46,La Ronge,CA,55.1001,-105.2842,3.45,85,75,2.3,Clouds
47,Punta Arenas,CL,-53.15,-70.9167,44.71,70,0,4.61,Clear
48,Lebu,CL,-37.6167,-73.65,54.84,93,10,14.85,Clear
49,Puerto Escondido,MX,15.85,-97.0667,74.39,66,53,4.07,Clouds
50,Yumen,CN,40.2833,97.2,19.42,53,100,9.8,Clouds
51,Havre-Saint-Pierre,CA,50.2334,-63.5986,32.0,97,100,11.01,Clouds
52,Hay River,CA,60.8156,-115.7999,4.98,85,40,8.05,Clouds
53,Saint-Philippe,RE,-21.3585,55.7679,83.79,75,41,0.78,Rain
54,Hithadhoo,MV,-0.6,73.0833,81.25,68,13,4.61,Clouds
55,Shepsi,RU,44.0361,39.1489,52.12,51,98,8.59,Clouds
56,New Norfolk,AU,-42.7826,147.0587,73.9,53,77,4.0,Clouds
57,Aswan,EG,24.0934,32.907,68.2,27,99,7.38,Clouds
58,Saint-Francois,FR,46.4154,3.9054,45.84,87,0,1.14,Clear
59,Tuktoyaktuk,CA,69.4541,-133.0374,0.72,96,97,8.97,Clouds
60,Mount Gambier,AU,-37.8333,140.7667,65.53,72,0,7.99,Clear
61,Araouane,ML,18.9048,-3.5265,67.75,19,90,15.75,Clouds
62,Saskylakh,RU,71.9167,114.0833,3.49,91,100,27.31,Clouds
63,Batemans Bay,AU,-35.7167,150.1833,71.1,86,63,8.81,Clouds
64,Shakawe,BW,-18.3667,21.85,75.36,64,98,7.87,Clouds
65,Yellowknife,CA,62.456,-114.3525,5.52,92,100,9.22,Snow
66,Bredasdorp,ZA,-34.5322,20.0403,73.33,53,38,18.39,Clouds
67,Nikolskoye,RU,59.7035,30.7861,37.29,94,100,10.42,Clouds
68,Valparaiso,CL,-33.0393,-71.6273,60.44,94,100,3.44,Thunderstorm
69,Da Nang,VN,16.0678,108.2208,73.38,68,20,12.66,Clouds
70,Nome,US,64.5011,-165.4064,14.07,73,0,14.97,Clear
71,Cape Town,ZA,-33.9258,18.4232,86.11,53,0,13.8,Clear
72,Kapaa,US,22.0752,-159.319,75.52,88,0,9.22,Clear
73,Albany,US,42.6001,-73.9662,45.36,77,100,4.05,Clouds
74,Jamestown,US,42.097,-79.2353,51.19,64,100,5.75,Clouds
75,San Patricio,US,28.017,-97.5169,57.06,66,19,4.52,Clouds
76,Bambous Virieux,MU,-20.3428,57.7575,86.25,54,40,11.5,Rain
77,Geraldton,AU,-28.7667,114.6,75.61,64,40,24.16,Clouds
78,Monrovia,LR,6.3005,-10.7969,77.29,50,61,8.86,Clouds
79,Carnarvon,AU,-24.8667,113.6333,77.85,62,0,25.28,Clear
80,Caravelas,BR,-17.7125,-39.2481,74.52,87,9,2.15,Clear
81,Qaanaaq,GL,77.484,-69.3632,-19.75,58,49,7.38,Clouds
82,Castro,BR,-24.7911,-50.0119,58.39,98,22,2.04,Clouds
83,Kodiak,US,57.79,-152.4072,36.91,93,100,20.71,Rain
84,Flinders,AU,-34.5833,150.8552,74.17,82,35,4.0,Clouds
85,Visby,SE,57.6409,18.296,44.82,87,0,24.16,Clear
86,Hamilton,US,39.1834,-84.5333,54.75,93,100,6.91,Mist
87,Los Llanos De Aridane,ES,28.6585,-17.9182,65.95,56,20,13.8,Clouds
88,Oranjestad,AW,12.524,-70.027,76.95,92,20,12.66,Clouds
89,Georgetown,MY,5.4112,100.3354,84.88,67,20,6.91,Clouds
90,Galle,LK,6.0367,80.217,81.52,71,51,8.95,Clouds
91,Torbay,CA,47.6666,-52.7314,34.29,88,100,11.5,Snow
92,Fortuna,US,40.5982,-124.1573,55.74,95,100,0.0,Clouds
93,San Juan,AR,-31.5375,-68.5364,75.83,41,95,4.09,Clouds
94,Provideniya,RU,64.3833,-173.3,-4.2,83,66,12.77,Clouds
95,Nefteyugansk,RU,61.0998,72.6035,-19.55,100,100,3.33,Clouds
96,Tecpan,GT,14.7623,-90.9947,51.62,95,55,2.35,Clouds
97,Busselton,AU,-33.65,115.3333,72.63,47,96,18.75,Clouds
98,Cabo San Lucas,MX,22.8909,-109.9124,68.5,78,0,5.28,Clear
99,Edson,CA,53.5835,-116.4356,10.54,92,0,3.44,Clear
100,Mar Del Plata,AR,-38.0023,-57.5575,60.87,86,53,7.0,Clouds
101,Mercedes,AR,-34.6515,-59.4307,70.86,50,0,8.72,Clear
102,Port Alfred,ZA,-33.5906,26.891,73.18,69,16,8.01,Clouds
103,Cody,US,44.5263,-109.0565,31.59,59,0,5.75,Clear
104,Shimoda,JP,34.6667,138.95,47.35,69,21,11.63,Clouds
105,Freeport,US,40.6576,-73.5832,52.16,91,100,5.75,Mist
106,Khatanga,RU,71.9667,102.5,-2.15,83,100,23.15,Clouds
107,Pisco,PE,-13.7,-76.2167,68.05,88,20,3.44,Clouds
108,Jumla,NP,29.2747,82.1838,51.3,33,1,6.49,Clear
109,Kadaya,RU,50.9327,119.2911,-21.24,95,6,2.98,Clear
110,Hasaki,JP,35.7333,140.8333,43.2,74,97,4.38,Clouds
111,Zhigansk,RU,66.7697,123.3711,-5.21,99,98,4.21,Clouds
112,Burley,US,42.5357,-113.7928,37.36,93,100,12.66,Rain
113,Luba,GQ,3.4568,8.5547,82.02,66,100,5.95,Clouds
114,La Ciotat,FR,43.1748,5.6045,57.56,88,59,14.03,Clouds
115,Amahai,ID,-3.3333,128.9167,78.71,77,100,10.51,Clouds
116,Kayasula,RU,44.325,45.0,45.55,35,75,6.69,Clouds
117,Ribeira Grande,PT,38.5167,-28.7,52.2,62,40,18.01,Rain
118,Kruisfontein,ZA,-34.0033,24.7314,73.89,44,0,14.92,Clear
119,Lagoa,PT,39.05,-27.9833,52.9,58,78,25.68,Rain
120,Kameoka,JP,35.0,135.5833,46.76,67,76,1.01,Clouds
121,Ransang,PH,8.9603,117.5828,82.04,80,95,6.44,Clouds
122,Teahupoo,PF,-17.8333,-149.2667,73.36,79,69,12.68,Rain
123,Tuatapere,NZ,-46.1333,167.6833,51.17,77,13,5.17,Clouds
124,Mahebourg,MU,-20.4081,57.7,86.29,54,40,11.5,Rain
125,Naze,JP,28.3667,129.4833,58.12,61,4,15.68,Clear
126,Saldanha,ZA,-33.0117,17.9442,87.85,58,2,15.48,Clear
127,Bac Giang,VN,21.2667,106.2,62.67,43,5,0.92,Clear
128,Esso,RU,55.9333,158.7,2.98,98,100,4.14,Clouds
129,Yambio,SS,4.5721,28.3955,86.09,31,100,5.19,Clouds
130,Pomezia,IT,41.667,12.5052,61.57,81,0,5.75,Clear
131,Toguchin,RU,55.2353,84.3858,13.15,96,100,4.63,Snow
132,Lachhmangarh,IN,27.8214,75.0251,69.37,22,60,9.53,Clouds
133,Constitucion,CL,-35.3333,-72.4167,57.4,94,33,6.49,Clouds
134,Samandag,TR,36.0842,35.9771,48.72,53,0,12.66,Clear
135,Severo-Kurilsk,RU,50.6789,156.125,25.11,81,65,11.79,Clouds
136,Acarau,BR,-2.8856,-40.12,76.69,80,68,9.06,Clouds
137,Alappuzha,IN,9.49,76.3264,91.99,60,47,10.18,Clouds
138,Caraballeda,VE,10.6112,-66.8522,77.07,65,40,0.0,Clouds
139,Norman Wells,CA,65.282,-126.8329,-16.56,76,20,4.61,Clouds
140,Tiksi,RU,71.6872,128.8694,1.42,92,100,16.69,Clouds
141,Dikson,RU,73.5069,80.5464,-5.08,92,65,24.72,Clouds
142,Muyezerskiy,RU,63.9333,31.65,32.56,97,99,10.36,Clouds
143,Arraial Do Cabo,BR,-22.9661,-42.0278,71.56,94,75,6.91,Clouds
144,Chuy,UY,-33.6971,-53.4616,66.24,59,0,8.21,Clear
145,Touros,BR,-5.1989,-35.4608,79.38,75,97,14.74,Clouds
146,Popondetta,PG,-8.7537,148.2534,76.03,96,100,2.98,Clouds
147,Alice Springs,AU,-23.7,133.8833,96.35,40,100,16.11,Clouds
148,Port-Cartier,CA,50.0334,-66.8654,28.74,100,100,3.8,Clouds
149,Bengkulu,ID,-3.8004,102.2655,79.48,85,88,13.53,Clouds
150,Coihaique,CL,-45.5752,-72.0662,54.21,87,0,5.75,Rain
151,Grindavik,IS,63.8424,-22.4338,25.27,86,75,16.11,Snow
152,Esperance,AU,-33.8667,121.9,66.6,79,58,21.77,Clouds
153,Bathsheba,BB,13.2167,-59.5167,77.61,73,20,18.41,Clouds
154,Santa Rosa,PH,14.3122,121.1114,84.11,78,100,9.91,Clouds
155,Canon City,US,38.441,-105.2424,42.96,39,0,17.27,Clear
156,Gizo,SB,-8.103,156.8419,83.43,71,100,11.43,Clouds
157,Tieli,CN,46.95,128.05,-1.95,100,99,3.78,Clouds
158,Jian,CN,27.1172,114.9793,47.53,69,100,5.17,Clouds
159,Nieves,PH,15.3274,120.9485,87.31,72,98,6.69,Clouds
160,Sorland,NO,67.667,12.6934,40.86,70,100,14.72,Rain
161,Camacha,PT,33.0833,-16.3333,63.82,88,20,11.5,Clouds
162,Port Augusta,AU,-32.5,137.7667,80.33,42,0,19.1,Clear
163,Nuristan,AF,35.3,70.8333,21.43,40,0,5.64,Clear
164,Te Anau,NZ,-45.4167,167.7167,56.7,75,69,4.18,Clouds
165,Kirakira,SB,-10.4544,161.9205,81.82,81,100,7.34,Clouds
166,Tabou,CI,4.423,-7.3528,78.82,74,2,6.24,Clear
167,Victoria,HK,22.2855,114.1577,67.24,68,0,18.99,Clear
168,Mbandaka,CD,0.0487,18.2603,87.71,37,93,2.04,Clouds
169,Guerrero Negro,MX,27.9769,-114.0611,59.83,93,13,9.31,Clouds
170,Baykit,RU,61.67,96.37,-21.33,96,99,0.78,Clouds
171,Los Alamos,US,35.8881,-106.307,32.61,84,75,1.01,Clouds
172,Jos,NG,9.9167,8.9,66.88,21,80,7.74,Clouds
173,Cherskiy,RU,68.75,161.3,-45.31,100,82,2.42,Clouds
174,Lebyazhye,RU,55.2689,66.4947,5.13,94,100,9.93,Clouds
175,Sawtell,AU,-30.3833,153.1,73.42,78,75,4.61,Clouds
176,Kaitangata,NZ,-46.2817,169.8464,50.31,84,17,5.14,Clouds
177,Livingston,GB,55.9029,-3.5226,37.47,89,0,2.3,Clear
178,Sao Joao Da Barra,BR,-21.6403,-41.0511,73.08,91,100,7.2,Clouds
179,Ambulu,ID,-8.345,113.6058,81.82,80,100,3.11,Clouds
180,Thompson,CA,55.7435,-97.8558,-2.04,84,100,0.0,Clouds
181,Bac Lieu,VN,9.285,105.7244,82.76,52,100,0.56,Clouds
182,Myitkyina,MM,25.3833,97.4,69.3,57,54,2.37,Clouds
183,Westport,US,41.1415,-73.3579,50.83,78,100,5.3,Clouds
184,Mahibadhoo,MV,3.7833,72.9667,81.41,71,89,15.14,Clouds
185,Xining,CN,36.6167,101.7667,27.59,19,82,2.08,Clouds
186,Igarka,RU,67.4667,86.5833,-28.14,96,21,4.07,Clouds
187,Asfi,MA,32.2994,-9.2372,66.2,45,82,9.19,Clouds
188,Vrises,GR,35.492,23.8899,65.19,63,18,3.24,Clouds
189,Sao Lourenco Do Sul,BR,-31.3653,-51.9783,66.52,70,0,5.84,Clear
190,Okato,NZ,-39.2,173.8833,63.91,81,0,8.99,Clear
191,Faanui,PF,-16.4833,-151.75,81.46,73,100,12.82,Rain
192,Letpadan,MM,17.7833,95.75,86.45,38,2,4.85,Clear
193,Bitkine,TD,11.9801,18.2138,80.24,15,29,8.99,Clouds
194,Ormara,PK,25.2088,64.6357,73.72,20,25,2.98,Clouds
195,Chokurdakh,RU,70.6333,147.9167,-33.59,99,45,8.08,Clouds
196,Ponta Do Sol,PT,32.6667,-17.1,69.01,74,38,6.15,Clouds
197,Porto Santo,PT,33.072,-16.3415,66.58,88,20,11.5,Clouds
198,Saint-Augustin,CA,51.226,-58.6502,33.33,98,100,11.99,Clouds
199,Abeche,TD,13.8292,20.8324,71.62,16,0,17.27,Clear
200,Oussouye,SN,12.485,-16.5469,69.89,46,79,8.43,Clouds
201,Vardo,NO,70.3705,31.1107,30.18,80,100,25.32,Clouds
202,Stolin,BY,51.8912,26.846,41.07,88,100,12.41,Clouds
203,Acandi,CO,8.5063,-77.2778,74.89,93,67,2.82,Rain
204,Cidreira,BR,-30.1811,-50.2056,67.12,90,3,4.76,Clear
205,Medeiros Neto,BR,-17.3739,-40.2206,70.32,95,45,2.46,Clouds
206,Sao Geraldo Do Araguaia,BR,-6.4006,-48.555,70.79,98,59,0.56,Clouds
207,Beroroha,MG,-21.6667,45.1667,98.11,37,12,0.4,Clouds
208,Requena,ES,39.4883,-1.1004,52.52,51,83,4.63,Clouds
209,Port Hardy,CA,50.6996,-127.4199,42.98,100,100,5.75,Rain
210,Ciudad Bolivar,VE,8.1222,-63.5497,72.25,96,24,6.58,Clouds
211,Arica,CL,-18.475,-70.3042,68.23,64,40,5.75,Clouds
212,Ancud,CL,-41.8697,-73.8203,50.67,91,0,1.79,Clear
213,Sorong,ID,-0.8833,131.25,79.79,72,100,0.67,Clouds
214,Aklavik,CA,68.2191,-135.0107,-9.58,99,72,7.18,Clouds
215,Shingu,JP,33.7333,135.9833,42.85,72,5,6.2,Clear
216,Lupiro,TZ,-8.3833,36.6667,87.15,54,99,3.62,Clouds
217,Santa Isabel Do Rio Negro,BR,-0.4139,-65.0192,71.02,99,96,1.57,Clouds
218,Barrow,US,71.2906,-156.7887,1.42,85,100,9.22,Snow
219,Kahului,US,20.8947,-156.47,74.84,81,100,8.01,Clouds
220,Fort Nelson,CA,58.8053,-122.7002,-11.06,85,0,0.0,Clear
221,Pacific Grove,US,36.6177,-121.9166,60.66,91,92,17.0,Clouds
222,Miquelon,PM,47.0975,-56.3814,39.2,93,100,27.49,Clouds
223,Beihai,CN,21.4833,109.1,65.01,51,0,5.5,Clear
224,Kungurtug,RU,50.5994,97.5228,-1.01,100,72,0.25,Clouds
225,Iracoubo,GF,5.4802,-53.2011,76.05,87,73,8.84,Clouds
226,San Policarpo,PH,12.1791,125.5072,80.08,83,100,6.4,Clouds
227,Pangody,RU,65.85,74.4859,-23.67,95,7,5.99,Clear
228,Oktyabrskiy,RU,54.4815,53.471,14.25,96,94,3.53,Clouds
229,Hambantota,LK,6.1241,81.1185,86.34,66,20,10.36,Clouds
230,Oranjemund,NA,-28.55,16.4333,75.81,53,0,11.23,Clear
231,Anjozorobe,MG,-18.4,47.8667,78.24,49,37,0.4,Clouds
232,Tromso,NO,69.6496,18.957,39.22,56,75,16.11,Rain
233,Marsaxlokk,MT,35.8419,14.5431,61.41,88,20,4.61,Clouds
234,Kjustendil,BG,42.2839,22.6911,50.34,63,1,1.25,Clear
235,Losevo,RU,50.6767,40.045,36.77,93,100,11.79,Clouds
236,Verkhoyansk,RU,67.5447,133.385,-21.98,97,100,3.11,Clouds
237,Auki,SB,-8.7676,160.7034,79.79,84,87,5.82,Clouds
238,Strezhevoy,RU,60.7333,77.5889,-15.3,100,96,3.2,Clouds
239,Rabo De Peixe,PT,37.8,-25.5833,53.11,71,75,21.85,Rain
240,Sosnovo-Ozerskoye,RU,52.5249,111.5418,-4.65,83,46,10.04,Clouds
241,Ahipara,NZ,-35.1667,173.1667,64.63,90,100,6.93,Clouds
242,Baculin,PH,7.4525,126.5842,79.77,87,100,7.14,Rain
243,Saint Anthony,US,45.0205,-93.218,23.05,95,100,6.91,Mist
244,Erzin,TR,36.9559,36.2,59.36,34,0,0.45,Clear
245,Lompoc,US,34.6391,-120.4579,59.77,97,100,6.91,Drizzle
246,Sitka,US,57.0531,-135.33,39.09,93,100,6.91,Rain
247,Cockburn Town,TC,21.4612,-71.1419,77.61,77,6,18.66,Rain
248,Casper,US,42.8666,-106.3131,35.73,73,100,15.01,Clouds
249,Asau,RO,46.4333,26.4,42.28,71,43,5.86,Clouds
250,Seoul,KR,37.5683,126.9778,37.0,56,0,4.61,Clear
251,Dryden,CA,49.7833,-92.7503,5.29,85,20,4.61,Clouds
252,Santa Lucia,ES,27.9117,-15.5407,59.76,68,20,9.22,Clouds
253,Qasigiannguit,GL,68.8193,-51.1922,8.85,95,100,5.55,Clouds
254,Nianzishan,CN,47.5167,122.8833,7.79,67,0,11.45,Clear
255,Ranau,MY,5.9538,116.6641,74.95,94,100,1.43,Clouds
256,Aktanysh,RU,55.7216,54.0829,8.38,96,64,6.89,Clouds
257,Quang Ngai,VN,15.1167,108.8,70.0,81,89,10.58,Clouds
258,Port Lincoln,AU,-34.7333,135.8667,69.08,64,0,9.91,Clear
259,Mporokoso,ZM,-9.3727,30.125,67.71,86,100,5.41,Rain
260,Sisimiut,GL,66.9395,-53.6735,5.13,80,100,10.76,Clouds
261,Mendeleyevsk,RU,55.9082,52.2905,13.24,97,97,7.31,Clouds
262,Sao Filipe,CV,14.8961,-24.4956,71.31,63,3,5.06,Clear
263,Ostrovnoy,RU,68.0531,39.5131,13.64,86,98,20.96,Clouds
264,Ahuimanu,US,21.4447,-157.8378,74.86,79,20,12.66,Clouds
265,Izhma,RU,65.0083,53.9113,0.73,91,22,9.42,Clouds
266,Paka,MY,4.6374,103.4368,84.13,70,20,9.22,Clouds
267,Meulaboh,ID,4.1363,96.1285,82.87,70,65,6.38,Clouds
268,Fremont,US,37.5483,-121.9886,61.43,94,100,6.91,Clouds
269,Kieta,PG,-6.2167,155.6333,80.26,77,73,6.2,Clouds
270,Jeremie,HT,18.65,-74.1167,73.99,76,0,3.15,Clear
271,Manokwari,ID,-0.8667,134.0833,77.95,70,100,8.75,Clouds
272,Srednekolymsk,RU,67.45,153.6833,-44.27,100,100,4.41,Clouds
273,Kologriv,RU,58.8275,44.3178,21.94,96,98,5.3,Clouds
274,Nampula,MZ,-15.1165,39.2666,80.55,69,75,8.05,Clouds
275,Storsteinnes,NO,69.2408,19.2344,38.05,87,100,9.8,Clouds
276,Alugan,PH,12.2188,125.4808,79.88,84,100,6.04,Clouds
277,Inuvik,CA,68.3499,-133.7218,-1.34,78,40,5.75,Snow
278,Kimbe,PG,-5.5502,150.1429,78.46,90,88,1.66,Rain
279,Sept-Iles,CA,50.2001,-66.3821,29.05,98,100,3.44,Fog
280,Canita,PA,9.2097,-78.8811,70.93,95,69,1.39,Clouds
281,Biak,ID,-0.9131,122.8766,81.91,74,95,7.83,Clouds
282,Hovd,MN,48.0056,91.6419,2.86,92,45,0.51,Clouds
283,Walvis Bay,NA,-22.9575,14.5053,72.55,64,0,3.44,Clear
284,Husavik,IS,66.0449,-17.3389,5.65,88,98,10.87,Clouds
285,Buala,SB,-8.145,159.5921,81.41,79,97,7.18,Clouds
286,Natchitoches,US,31.7668,-93.1335,58.05,100,100,0.0,Fog
287,Larsnes,NO,62.2028,5.5773,42.44,85,100,14.03,Rain
288,Tilichiki,RU,60.4667,166.1,-22.47,96,28,10.89,Clouds
289,Kaseda,JP,31.4167,130.3167,50.07,62,19,17.43,Clouds
290,Benton Harbor,US,42.1167,-86.4542,38.05,87,100,0.0,Clouds
291,Abu Zabad,SD,12.35,29.25,79.16,20,0,16.31,Clear
292,Luderitz,NA,-26.6481,15.1594,73.29,60,0,9.35,Clear
293,Awbari,LY,26.5921,12.7805,56.25,37,0,9.06,Clear
294,Salina Cruz,MX,16.1667,-95.2,72.66,83,95,4.7,Clouds
295,Okhotsk,RU,59.3833,143.3,-5.04,98,100,10.63,Clouds
296,Nha Trang,VN,12.25,109.1833,75.2,77,100,10.38,Rain
297,Kaeo,NZ,-35.1,173.7833,65.28,87,100,10.04,Clouds
298,Goya,AR,-29.14,-59.2626,70.79,48,8,4.21,Clear
299,Kavieng,PG,-2.5744,150.7967,82.42,77,90,7.63,Clouds
300,Karachi,PK,24.9056,67.0822,78.62,19,0,4.61,Clear
301,Roald,NO,62.5833,6.1333,42.75,75,75,18.41,Rain
302,Ottumwa,US,41.02,-92.4113,27.14,95,0,5.75,Clear
303,Akyab,MM,20.15,92.9,75.56,44,0,11.56,Clear
304,Marabba,SD,12.35,32.1833,82.87,22,1,13.0,Clear
305,Lima,PE,-12.0432,-77.0282,69.91,81,40,14.97,Clouds
306,Kawalu,ID,-7.3817,108.2082,76.91,86,100,1.5,Rain
307,Yuancheng,CN,36.652,107.7896,30.47,26,28,1.23,Clouds
308,Mwaro,BI,-3.5,29.6667,67.21,66,99,6.31,Rain
309,Iqaluit,CA,63.7506,-68.5145,-15.07,70,75,0.0,Clouds
310,Korem,ET,12.5058,39.5228,56.07,72,69,7.94,Clouds
311,Rameswaram,IN,9.2833,79.3,79.2,74,90,12.17,Clouds
312,Stokmarknes,NO,68.5646,14.9108,40.98,60,100,21.85,Clouds
313,Alofi,NU,-19.0595,-169.9187,76.89,94,100,4.61,Rain
314,Fairbanks,US,64.8378,-147.7164,-10.86,76,0,0.0,Clear
315,Porto Belo,BR,-27.1578,-48.5531,70.16,86,7,5.12,Clear
316,Leningradskiy,RU,69.3833,178.4167,-30.73,96,46,7.0,Clouds
317,Quatre Cocos,MU,-20.2078,57.7625,86.11,63,23,7.34,Rain
318,College,US,64.8569,-147.8028,-10.88,76,20,0.0,Clouds
319,Tumpat,MY,6.1978,102.171,84.18,70,20,6.91,Clouds
320,Ilulissat,GL,69.2167,-51.1,1.98,96,100,5.01,Snow
321,Narsaq,GL,60.9167,-46.05,-6.36,66,0,6.96,Clear
322,Khandyga,RU,62.6667,135.6,-27.4,99,100,2.13,Clouds
323,Kaka,TM,37.3482,59.6143,48.07,52,5,10.51,Clear
324,Yining,CN,29.0361,114.5636,50.58,58,65,2.01,Clouds
325,Berlevag,NO,70.8578,29.0864,26.6,74,100,10.36,Clouds
326,Cabedelo,BR,-6.9811,-34.8339,75.87,75,100,10.74,Clouds
327,Ekhabi,RU,53.5102,142.9671,4.17,89,100,13.15,Clouds
328,Zhaoqing,CN,23.0512,112.4597,66.81,36,2,3.98,Clear
329,Vestmannaeyjar,IS,63.4427,-20.2734,31.06,89,100,2.77,Snow
330,Matay,EG,28.419,30.7792,64.99,50,98,15.05,Clouds
331,Port Elizabeth,ZA,-33.918,25.5701,77.09,60,0,6.91,Clear
332,Baruun-Urt,MN,46.6806,113.2792,-0.8,88,5,5.66,Clear
333,Sinnamary,GF,5.3833,-52.95,76.21,87,74,8.7,Clouds
334,Honiara,SB,-9.4333,159.95,80.31,82,100,4.12,Clouds
335,Saint George,US,37.1041,-113.5841,41.59,93,100,3.44,Mist
336,Flin Flon,CA,54.7682,-101.865,-2.09,97,74,6.69,Clouds
337,Orlik,RU,52.5178,99.825,-13.11,99,22,0.51,Clouds
338,Mamallapuram,IN,12.6264,80.1722,86.05,62,59,6.85,Clouds
339,Maniitsoq,GL,65.4167,-52.9,6.85,83,100,6.26,Clouds
340,Bonavista,CA,48.6499,-53.1147,34.36,96,100,23.73,Snow
341,Chik,RU,54.9928,82.4311,8.35,78,100,8.95,Snow
342,Prince Rupert,CA,54.3161,-130.3201,38.89,89,40,4.61,Clouds
343,Bethel,US,41.3712,-73.414,48.07,75,100,4.45,Clouds
344,Dong Xoai,VN,11.5333,106.9167,81.0,58,100,3.78,Clouds
345,Zaozerne,UA,45.1582,33.2787,51.49,80,100,3.2,Clouds
346,Grand-Lahou,CI,5.1367,-5.0242,79.77,69,6,7.49,Clear
347,Camopi,GF,3.1655,-52.3158,70.23,100,92,2.04,Clouds
348,Mehamn,NO,71.0357,27.8492,26.55,80,47,24.16,Clouds
349,Akom,CM,2.6678,12.7109,85.57,26,56,2.64,Clouds
350,Plastun,RU,44.7561,136.2939,16.47,78,2,7.94,Clear
351,Telimele,GN,10.9167,-13.3333,76.15,23,100,2.71,Clouds
352,Miyako,JP,39.6367,141.9525,34.77,68,17,5.23,Clouds
353,Yantal,RU,56.8471,105.2542,-24.18,99,24,1.36,Clouds
354,Odweyne,SO,9.4092,45.064,82.44,36,18,11.48,Clouds
355,San Antonio,US,29.4241,-98.4936,53.33,84,0,4.61,Clear
356,Madikeri,IN,12.4167,75.7333,80.51,26,11,4.5,Clouds
357,Mapiri,BO,-15.25,-68.1667,65.16,95,98,1.72,Clouds
358,Primero De Marzo,PY,-25.153,-56.928,69.69,56,29,3.78,Clouds
359,Christchurch,NZ,-43.5333,172.6333,57.4,65,1,11.5,Clear
360,Lisala,CD,2.15,21.5167,94.26,27,50,2.59,Clouds
361,Tuntum,BR,-5.2581,-44.6489,70.97,98,16,1.43,Clouds
362,Kyaikkami,MM,16.08,97.5675,80.46,55,2,7.65,Clear
363,Souillac,MU,-20.5167,57.5167,86.38,54,40,11.5,Rain
364,Meadow Lake,US,34.8014,-106.5436,39.87,81,47,5.01,Clouds
365,Kulhudhuffushi,MV,6.6221,73.07,80.53,69,85,8.52,Clouds
366,Talnakh,RU,69.4865,88.3972,-20.76,89,42,6.24,Clouds
367,Kushima,JP,31.4583,131.2333,46.42,65,0,11.41,Clear
368,Mitsamiouli,KM,-11.3847,43.2844,86.29,66,40,8.05,Clouds
369,Fukue,JP,32.6881,128.8419,44.96,57,20,11.5,Clouds
370,Grahamstown,ZA,-33.3042,26.5328,66.96,45,0,7.81,Clear
371,Mayor Pablo Lagerenza,PY,-19.9309,-60.7718,73.81,73,70,4.36,Clouds
372,Beachwood,US,41.4645,-81.5087,51.33,92,100,4.61,Mist
373,Ambilobe,MG,-13.2,49.05,91.09,47,73,0.83,Clouds
374,Beloha,MG,-25.1667,45.05,90.32,40,3,10.4,Clear
375,Ambon,ID,-3.6954,128.1814,80.74,78,40,5.75,Clouds
376,Bull Savanna,JM,17.8868,-77.5902,69.1,81,0,5.64,Clear
377,Jacmel,HT,18.2342,-72.5347,73.24,77,0,5.68,Clear
378,Byron Bay,AU,-28.65,153.6167,72.95,83,8,7.02,Clear
379,Camocim,BR,-2.9022,-40.8411,76.03,83,23,9.91,Clouds
380,Ojinaga,MX,29.5667,-104.4167,51.37,56,0,2.19,Clear
381,Springfield,US,37.2153,-93.2982,41.99,82,0,9.22,Clear
382,Alghero,IT,40.5589,8.3181,60.89,94,20,9.22,Clouds
383,Darasun,RU,51.6667,114.0,0.54,80,6,10.04,Clear
384,Road Town,VG,18.4167,-64.6167,75.29,71,0,17.69,Clear
385,Omsukchan,RU,62.5333,155.8,-37.32,97,75,3.29,Clouds
386,Palmer,US,42.1584,-72.3287,50.47,87,20,0.0,Clouds
387,Wukari,NG,7.85,9.7833,80.53,17,65,11.77,Clouds
388,Bayan,CN,46.0833,127.4,1.51,96,17,7.09,Clouds
389,Bucerias,MX,20.75,-105.3333,68.99,78,0,3.78,Clear
390,Ascension,US,30.2169,-90.9001,60.8,96,100,0.0,Clouds
391,Antofagasta,CL,-23.65,-70.4,63.68,85,24,2.53,Clouds
392,Lavrentiya,RU,65.5833,-171.0,-10.52,88,93,10.25,Clouds
393,Machico,PT,32.7,-16.7667,69.01,81,20,11.5,Clouds
394,Inirida,CO,3.8653,-67.9239,72.41,84,60,2.89,Clouds
395,Red Bluff,US,40.1785,-122.2358,58.68,94,0,14.97,Clear
396,Paita,PE,-5.0892,-81.1144,69.1,80,100,8.68,Clouds
397,Morondava,MG,-20.2833,44.2833,85.01,68,13,9.66,Clouds
398,North Bend,US,43.4065,-124.2243,47.91,100,100,5.75,Mist
399,Huntsville,US,34.7304,-86.5861,58.78,95,100,14.0,Clouds
400,Uddevalla,SE,58.3478,11.9424,46.65,90,100,3.0,Clouds
401,Sabang,ID,5.8933,95.3214,79.52,70,100,14.43,Clouds
402,Santa Cruz,BO,-17.8,-63.1667,72.86,88,94,4.61,Clouds
403,Moose Factory,CA,51.2585,-80.6094,21.2,86,100,9.22,Clouds
404,Yerbogachen,RU,61.2767,108.0108,-8.59,90,100,5.41,Clouds
405,Itarema,BR,-2.9248,-39.9167,76.42,80,59,8.5,Clouds
406,Saint-Pierre,RE,-21.3393,55.4781,83.88,61,40,10.36,Rain
407,Katsuura,JP,35.1333,140.3,48.45,61,99,3.2,Clouds
408,Mirnyy,RU,62.5353,113.9611,-4.77,83,98,13.0,Clouds
409,Guanare,VE,9.0418,-69.7421,60.82,66,67,1.14,Clouds
410,Mahanoro,MG,-19.9,48.8,84.4,57,0,9.78,Clear
411,Xuzhou,CN,34.1805,117.1571,45.82,34,100,4.43,Clouds
412,Fleetwood,GB,53.9253,-3.0109,46.06,93,75,8.05,Clouds
413,Ukiah,US,39.1502,-123.2078,57.94,98,100,0.0,Clouds
414,Trairi,BR,-3.2778,-39.2689,77.68,80,97,8.48,Clouds
415,Hofn,IS,64.2539,-15.2082,17.46,58,28,7.58,Clouds
416,Tadine,NC,-21.55,167.8833,79.88,83,5,18.16,Clear
417,Chebsara,RU,59.2002,38.8356,24.13,99,100,3.4,Clouds
418,Dubti,ET,11.7361,41.0853,81.14,52,72,9.46,Clouds
419,Coquimbo,CL,-29.9533,-71.3436,62.33,77,100,4.61,Clouds
420,Thinadhoo,MV,0.5333,72.9333,81.34,73,12,7.11,Clouds
421,Yulara,AU,-25.2406,130.9889,92.97,28,100,8.23,Clouds
422,Dzerzhinsk,RU,56.2389,43.4631,33.62,100,100,2.24,Snow
423,Parkes,AU,-33.1333,148.1833,85.35,40,63,3.0,Clouds
424,Beringovskiy,RU,63.05,179.3167,-11.45,90,100,16.28,Clouds
425,Kloulklubed,PW,7.0419,134.2556,82.99,76,92,10.51,Clouds
426,Issoire,FR,45.55,3.25,56.46,82,100,6.73,Clouds
427,Codrington,AU,-38.2667,141.9667,64.54,78,0,10.2,Clear
428,Pangnirtung,CA,66.1451,-65.7125,-11.13,91,100,1.1,Clouds
429,Puerto Penasco,MX,31.3167,-113.5333,61.65,84,2,6.91,Clear
430,Amapa,BR,1.0,-52.0,69.4,100,98,1.48,Clouds
431,Fallon,US,39.4735,-118.7774,48.92,87,100,5.75,Rain
432,Harrisburg,US,40.2737,-76.8844,53.08,86,75,3.44,Haze
433,Gopalpur,IN,19.2667,84.9167,78.69,69,8,10.69,Clear
434,Gotsu,JP,35.0,132.2167,43.72,61,94,16.35,Clouds
435,Mugango,TZ,-1.6833,33.7,77.18,45,84,7.45,Clouds
436,Kununurra,AU,-15.7667,128.7333,80.58,89,100,9.22,Clouds
437,Kyabe,TD,9.4515,18.9449,84.15,20,100,7.23,Clouds
438,Alihe,CN,50.5667,123.7167,-5.03,89,6,4.9,Clear
439,Dudinka,RU,69.4058,86.1778,-29.49,98,12,4.34,Clouds
440,Myaundzha,RU,63.0494,147.1858,-22.77,97,100,2.01,Clouds
441,Salinas,US,36.6777,-121.6555,62.83,79,96,4.7,Clouds
442,Korgen,NO,66.0771,13.8153,37.72,97,100,6.11,Rain
443,Maryville,US,35.7565,-83.9705,59.14,85,100,3.44,Clouds
444,Kirkwall,GB,58.9848,-2.9587,33.85,93,75,6.91,Clouds
445,San Felipe,VE,10.3399,-68.7425,71.13,95,82,3.04,Clouds
446,Roebourne,AU,-20.7833,117.1333,87.42,58,1,18.63,Clear
447,Alto Araguaia,BR,-17.3147,-53.2153,69.17,97,100,4.99,Clouds
448,Ingham,US,42.6,-84.3833,41.92,96,100,3.44,Clouds
449,Koulikoro,ML,14.0,-7.75,73.47,11,81,16.42,Clouds
450,Kashi,CN,39.4547,75.9797,27.61,43,20,4.47,Clouds
451,Nola,IT,40.922,14.5329,62.64,89,36,1.83,Clouds
452,Pochutla,MX,15.7432,-96.4661,69.82,64,62,3.58,Clouds
453,Yabelo,ET,4.8833,38.0833,74.86,27,0,22.59,Clear
454,Nishihara,JP,26.1842,127.7558,64.06,63,75,17.27,Clouds
455,Trapani,IT,37.8333,12.6667,60.28,87,40,5.75,Clouds
456,Deputatskiy,RU,69.3,139.9,-26.97,95,92,6.33,Clouds
457,Honningsvag,NO,70.9821,25.9704,31.75,74,100,19.57,Clouds
458,Whitehorse,CA,60.7161,-135.0538,1.09,79,75,2.3,Clouds
459,Lorengau,PG,-2.0226,147.2712,81.81,81,94,7.87,Clouds
460,Puerto Asis,CO,0.5133,-76.5007,70.57,99,100,2.75,Clouds
461,Nautla,MX,20.2167,-96.7833,71.69,72,100,1.57,Clouds
462,Puerto Narino,CO,-3.7703,-70.3831,70.77,98,100,1.66,Clouds
463,Palestine,PS,31.9216,35.2033,55.33,75,0,17.76,Clear
464,Juazeiro,BR,-9.4117,-40.4986,71.78,88,0,5.75,Rain
465,Arlit,NE,18.7369,7.3853,66.4,15,9,4.36,Clear
466,Taoudenni,ML,22.6783,-3.9836,67.84,23,98,14.52,Clouds
467,Conceicao Do Araguaia,BR,-8.2578,-49.2647,71.04,97,100,1.9,Clouds
468,Mont-Dore,NC,-22.2833,166.5833,82.0,99,10,11.41,Clear
469,Hami,CN,42.8,93.45,25.29,37,41,2.71,Clouds
470,Tagab,AF,34.855,69.6492,46.58,28,0,7.45,Clear
471,Port Blair,IN,11.6667,92.75,82.44,69,40,6.91,Clouds
472,Gongzhuling,CN,43.5008,124.8198,10.47,88,3,5.7,Clear
473,Duliby,UA,49.2313,23.8153,47.77,74,98,15.9,Clouds
474,Kalininsk,RU,51.5,44.4758,33.69,100,100,11.83,Snow
475,Nouadhibou,MR,20.931,-17.0347,66.18,77,9,18.41,Clear
476,Tabuk,PH,17.4189,121.4443,73.9,91,97,5.53,Clouds
477,Sterling,US,39.0062,-77.4286,54.97,90,100,5.75,Clouds
478,Jiayuguan,CN,39.8167,98.3,21.87,50,100,1.03,Clouds
479,Ballitoville,ZA,-29.539,31.2144,74.25,60,20,8.05,Clouds
480,Kjopsvik,NO,68.097,16.3742,40.87,78,100,10.83,Rain
481,Upleta,IN,21.7333,70.2833,82.45,18,1,11.68,Clear
482,Olinda,BR,-8.0089,-34.8553,80.33,69,75,9.22,Clouds
483,Arman,RU,59.7,150.1667,-4.27,82,99,8.59,Clouds
484,Vryburg,ZA,-26.9566,24.7284,79.38,47,18,13.44,Clouds
485,Watertown,US,42.3709,-71.1828,51.24,81,75,13.8,Clouds
486,Emba,KZ,48.8264,58.1442,28.71,97,100,13.67,Snow
487,Peniche,PT,39.3558,-9.3811,57.29,83,38,22.08,Clouds
488,Tual,ID,-5.6667,132.75,82.71,77,100,29.04,Rain
489,Iberia,US,29.9502,-91.7507,62.67,94,100,0.0,Clouds
490,Roma,US,43.2128,-75.4557,51.08,75,100,8.05,Clouds
491,Isla Vista,US,34.4133,-119.861,60.35,91,100,0.0,Mist
492,Korla,CN,41.7597,86.1469,29.75,35,87,5.06,Clouds
493,Mahon,ES,39.8885,4.2658,61.36,100,20,9.22,Clouds
494,Salalah,OM,17.0151,54.0924,81.5,40,7,7.18,Clear
495,Metkovic,HR,43.0542,17.6483,46.87,74,39,2.46,Clouds
496,Shubarkuduk,KZ,49.1447,56.4872,31.15,98,100,11.34,Snow
497,Tazovskiy,RU,67.4667,78.7,-23.82,91,12,8.21,Clouds
498,Nanortalik,GL,60.1432,-45.2371,12.54,81,22,8.37,Clouds
499,Mujiayingzi,CN,42.1167,118.7833,19.36,40,5,0.72,Clear
500,Tsiroanomandidy,MG,-18.7667,46.0333,82.6,59,14,2.55,Rain
501,Kudahuvadhoo,MV,2.6708,72.8944,81.14,72,12,12.66,Clouds
502,Seydisehir,TR,37.4193,31.8453,45.99,43,0,2.39,Clear
503,Sungairaya,ID,0.7,108.9,82.22,65,92,11.74,Clouds
504,Paamiut,GL,61.994,-49.6678,4.06,73,27,7.74,Clouds
505,Sao Felix Do Xingu,BR,-6.6447,-51.995,69.35,99,82,0.98,Clouds
506,Mirandopolis,BR,-21.1336,-51.1017,70.79,93,69,6.24,Clouds
507,Tukrah,LY,32.5341,20.5791,63.5,65,22,8.28,Clouds
508,Montefiascone,IT,42.5393,12.0362,54.27,90,96,1.99,Clouds
509,The Valley,AI,18.217,-63.0578,78.1,75,0,19.28,Clear
510,Sechura,PE,-5.5569,-80.8222,69.71,77,99,7.58,Clouds
511,Uray,RU,60.1247,64.7758,-12.96,98,89,4.14,Clouds
512,Merauke,ID,-8.4667,140.3333,79.9,83,100,13.35,Rain
513,Helmsdale,GB,58.1168,-3.6517,28.94,88,93,9.95,Clouds
514,Talara,PE,-4.5772,-81.2719,70.3,77,100,11.27,Clouds
515,Juruti,BR,-2.1522,-56.0922,73.38,96,100,1.52,Clouds
516,Shyroke,UA,47.6917,33.2571,43.11,76,1,2.59,Clear
517,Myingyan,MM,21.4667,95.3833,80.91,35,4,4.03,Clear
518,Ketchikan,US,55.3422,-131.6461,35.58,100,100,3.44,Fog
519,Terrace,CA,54.5163,-128.6035,31.91,74,75,16.11,Clouds
520,Rey Bouba,CM,8.6724,14.1786,81.18,16,45,5.1,Clouds
521,Yakima,US,46.4665,-120.6678,33.24,95,100,4.61,Mist
522,Kalakamati,BW,-20.5929,27.3121,81.23,37,43,11.92,Clouds
523,Gospic,HR,44.5461,15.3747,47.89,98,99,4.63,Clouds
524,Marzuq,YE,14.4,46.4667,71.58,32,4,6.46,Clear
525,Simao,CN,22.7886,100.9748,56.59,89,100,3.0,Clouds
526,Mangan,IN,27.5167,88.5333,59.76,61,89,4.94,Clouds
527,Emerald,AU,-23.5333,148.1667,87.35,45,98,14.09,Clouds
528,Dongkan,CN,33.9997,119.8308,43.21,39,100,2.48,Clouds
529,Rio Gallegos,AR,-51.6226,-69.2181,48.25,61,0,5.75,Clear
530,Necochea,AR,-38.5473,-58.7368,58.98,80,10,8.55,Clear
531,Chillicothe,US,39.3331,-82.9824,54.25,82,100,5.75,Rain
532,Plettenberg Bay,ZA,-34.0527,23.3716,70.61,57,2,8.25,Clear
533,Avera,US,33.194,-82.5271,60.31,95,100,7.65,Clouds
534,Pavlohrad,UA,48.5167,35.8667,41.36,78,3,8.81,Clear
535,Khuzhir,RU,53.1939,107.3397,-0.31,76,2,7.92,Clear
536,Yuci,CN,37.6803,112.7319,38.95,16,0,2.24,Clear
537,Ust-Uda,RU,54.1742,103.0304,-13.09,98,35,2.77,Clouds
538,Aloleng,PH,16.1307,119.7824,81.75,70,12,11.79,Clouds
539,Broken Hill,AU,-31.95,141.4333,93.79,24,85,13.62,Clouds
540,Mogadishu,SO,2.0371,45.3438,83.16,66,59,16.62,Clouds
541,Ixtapa,MX,20.7,-105.2,68.23,79,0,2.57,Clear
542,Smoky Lake,CA,54.1169,-112.4686,5.16,100,100,3.71,Clouds
543,Vostok,RU,46.4856,135.8833,0.0,97,38,4.94,Clouds
544,Chitral,PK,35.8462,71.7858,43.11,33,0,6.55,Clear
545,Lagos,NG,6.5833,3.75,75.52,15,80,5.99,Clouds
546,Kamenka,RU,51.3223,42.7678,34.09,100,100,13.13,Snow
547,Fjerritslev,DK,57.0813,9.2664,46.89,88,100,20.31,Rain
548,Muisne,EC,0.6,-80.0333,74.8,87,100,8.7,Rain
549,Itanagar,IN,27.1,93.6167,68.13,45,30,3.24,Clouds
550,Suhbaatar,MN,50.2314,106.2078,-6.72,100,51,2.08,Clouds
551,Boyolangu,ID,-8.1181,111.8935,80.74,81,100,3.53,Clouds
552,Ambovombe,MG,-25.1667,46.0833,84.42,60,25,13.29,Clouds
553,Key West,US,24.5557,-81.7826,75.0,100,0,5.99,Clear
554,Hirara,JP,24.8,125.2833,69.66,73,75,21.85,Clouds
555,Takhtamygda,RU,54.1,123.5667,-13.18,87,65,4.0,Clouds
556,Binga,ZW,-17.6203,27.3414,82.02,55,96,8.75,Rain
557,Sur,OM,22.5667,59.5289,74.52,42,0,10.69,Clear
558,Kolar,IN,13.1333,78.1333,81.36,35,26,6.93,Clouds
559,Aviles,ES,43.5547,-5.9248,69.19,26,0,5.75,Clear
560,Oxford,GB,51.7522,-1.256,56.05,89,20,20.71,Clouds
561,Acapulco,MX,16.8634,-99.8901,78.08,60,100,3.36,Clouds
562,Kropotkin,RU,45.4375,40.5756,47.28,54,99,11.21,Clouds
563,Chkalovskoye,RU,44.8392,133.0436,4.59,93,11,5.12,Clouds
564,Tahe,CN,52.3333,124.7333,-3.24,70,6,12.59,Clear
565,Karasburg,NA,-28.0167,18.75,91.11,10,0,12.75,Clear
566,Ugoofaaru,MV,5.6667,73.0,81.23,72,65,16.51,Clouds
567,San Cristobal,VE,7.7669,-72.225,62.78,77,89,1.74,Clouds
568,Benghazi,LY,32.1167,20.0667,62.42,64,19,5.99,Clouds
569,Lefka,CY,35.1106,32.8506,61.09,59,4,11.01,Clear
570,Port Macquarie,AU,-31.4333,152.9167,71.89,84,24,8.28,Clouds
571,Homer,US,59.6425,-151.5483,34.81,82,93,8.99,Clouds
572,Sao Jose Da Coroa Grande,BR,-8.8978,-35.1478,77.47,79,93,8.16,Clouds
573,Comodoro Rivadavia,AR,-45.8667,-67.5,62.46,48,0,19.57,Clear
574,Imbituba,BR,-28.24,-48.6703,67.68,82,0,10.63,Clear
575,Tocopilla,CL,-22.092,-70.1979,66.83,64,8,4.23,Clear
576,Anna Paulowna,NL,52.862,4.834,56.01,95,75,32.01,Clouds
577,Hecun,CN,36.5333,114.1111,41.47,22,0,0.94,Clear
578,Navrongo,GH,10.8956,-1.0921,77.04,13,12,14.41,Clouds
579,Omboue,GA,-1.5746,9.2618,83.66,73,100,2.44,Clouds
580,Visnes,NO,59.3556,5.2242,43.21,75,75,35.68,Rain
581,Daru,PG,-9.0763,143.2092,80.01,80,100,6.17,Rain
582,Mangai,CD,-4.05,19.5333,73.45,94,100,2.21,Rain
583,Longyearbyen,SJ,78.2186,15.6401,31.84,80,75,20.71,Snow
584,Champerico,GT,14.3,-91.9167,75.43,79,29,7.72,Clouds
585,Namatanai,PG,-3.6667,152.4333,80.26,79,100,4.7,Clouds
586,Lar,IN,26.2039,83.9717,74.41,31,0,5.03,Clear
587,Guane,CU,22.2025,-84.0875,71.24,94,17,5.55,Clouds
588,Golden Gate,US,26.1879,-81.6951,67.98,97,100,3.44,Mist
589,Port-Gentil,GA,-0.7193,8.7815,84.16,84,40,4.61,Clouds
590,Aguimes,ES,27.9054,-15.4461,64.65,68,20,9.22,Clouds
591,Havelock,US,34.8791,-76.9013,67.98,89,100,9.22,Rain
592,Chabahar,IR,25.2919,60.643,71.56,33,100,1.86,Clouds
593,Port Moresby,PG,-9.4431,147.1797,83.62,70,40,11.5,Clouds
594,Zehdenick,DE,52.9785,13.3317,57.0,86,100,16.24,Rain
595,La Macarena,CO,2.1837,-73.7849,69.55,78,70,2.53,Clouds
596,Santa Vitoria Do Palmar,BR,-33.5189,-53.3681,66.74,59,0,8.43,Clear
597,Atasu,KZ,48.6814,71.6433,28.85,97,100,17.18,Snow
598,Dingle,PH,10.9995,122.6711,79.07,88,100,7.76,Clouds
599,Jishui,CN,33.7333,115.4,47.08,38,97,3.29,Clouds
600,Madhupur,IN,24.25,86.65,76.64,21,0,6.33,Clear
601,Barcelos,PT,41.5388,-8.6151,60.69,64,97,18.23,Clouds
602,Margate,GB,51.3813,1.3862,57.11,88,100,11.99,Clouds
603,Karasjok,NO,69.4719,25.5112,23.45,93,96,12.17,Snow
604,Vuktyl,RU,63.8567,57.3094,-15.77,97,27,2.89,Clouds
605,Pemberton,CA,50.3164,-122.8027,42.17,98,100,4.05,Clouds
606,Mabaruma,GY,8.2,-59.7833,70.27,100,50,1.21,Clouds
607,Bakaly,RU,55.1789,53.8028,11.75,95,83,4.07,Clouds
608,Chumikan,RU,54.7183,135.315,-4.59,81,100,5.39,Clouds
609,Evensk,RU,61.95,159.2333,-10.46,76,93,6.69,Clouds
610,Loralai,PK,30.3705,68.598,59.41,8,74,6.71,Clouds
611,Tamala,RU,52.541,43.2515,32.29,99,100,12.06,Snow
612,Billings,US,45.7833,-108.5007,29.16,64,99,7.0,Clouds
613,Laramie,US,41.3114,-105.5911,32.95,69,75,1.01,Clouds
614,Maceio,BR,-9.6658,-35.7353,74.64,94,40,2.3,Clouds
615,Bartica,GY,6.4,-58.6167,73.72,100,62,1.54,Clouds
616,Alakurtti,RU,66.9672,30.3491,15.78,95,100,7.11,Clouds
617,Chase,CA,50.8165,-119.6857,33.08,98,100,3.02,Clouds
618,Puerto Baquerizo Moreno,EC,-0.9,-89.6,71.85,92,100,8.86,Clouds
619,Tigil,RU,57.8,158.6667,1.31,99,99,2.51,Clouds
620,Turukhansk,RU,65.8167,87.9833,-17.41,83,46,7.36,Clouds
621,Leh,IN,34.1667,77.5833,18.43,62,42,5.5,Clouds
622,Bilma,NE,18.6853,12.9164,63.99,19,5,4.97,Clear
623,Tolmachevo,RU,54.9824,82.7363,8.58,78,100,8.99,Snow
624,Nuuk,GL,64.1835,-51.7216,0.43,74,26,8.66,Clouds
625,Pemba,MZ,-12.974,40.5178,86.7,55,75,14.0,Clouds
626,Seminole,US,28.7086,-81.2081,69.39,95,100,4.61,Fog
627,Xai-Xai,MZ,-25.0519,33.6442,77.63,66,99,15.73,Clouds
628,Yatou,CN,37.15,122.3833,31.14,66,0,3.27,Clear
629,Taian,CN,36.1853,117.12,38.5,42,0,0.31,Clear
630,Komsomolskiy,UZ,40.4272,71.7189,41.72,65,75,9.22,Mist
631,Sibolga,ID,1.7427,98.7792,82.13,72,91,3.56,Clouds
632,Tucuman,AR,-26.8241,-65.2226,71.6,94,75,4.61,Clouds
633,Luena,AO,-11.7833,19.9167,74.28,69,92,2.51,Rain
634,Sobolevo,RU,54.4299,31.8996,29.88,97,100,6.82,Clouds
635,Henties Bay,NA,-22.116,14.2845,71.58,69,7,7.47,Clear
636,Port Pirie,AU,-33.1833,138.0167,78.66,47,0,10.96,Clear
637,Prince George,CA,53.9166,-122.753,29.64,93,100,4.61,Clouds
638,Faya,SA,18.3851,42.4509,62.71,50,1,9.19,Clear
639,Kutahya,TR,39.4242,29.9833,45.19,60,94,1.79,Clouds
640,Shestakovo,RU,56.4915,103.96,-25.04,99,9,0.47,Clear
641,Abu Samrah,SY,35.3029,37.1841,52.92,56,0,8.01,Clear
642,Belmonte,BR,-15.8631,-38.8828,75.24,86,38,4.45,Clouds
643,Henderson,US,36.0397,-114.9819,56.39,65,100,12.66,Clouds
644,Siljan,NO,59.2884,9.71,43.18,72,74,20.94,Clouds
645,Mount Isa,AU,-20.7333,139.5,89.37,43,56,11.5,Clouds
646,High Level,CA,58.5169,-117.136,-7.67,100,100,1.48,Clouds
647,Imeni Zhelyabova,RU,58.9544,36.5956,33.1,100,100,4.92,Clouds
648,Japura,ID,-0.3167,102.35,83.44,67,91,5.5,Clouds
649,Balkanabat,TM,39.5108,54.3671,49.93,41,0,7.74,Clear
650,Sola,VU,-13.8833,167.55,82.4,79,100,18.63,Rain
651,Petrokamenskoye,RU,57.716,60.6484,-4.41,96,100,4.72,Clouds
652,Antalaha,MG,-14.9003,50.2788,82.67,60,3,8.57,Clear
653,Igarapava,BR,-20.0383,-47.7469,72.52,86,100,3.29,Clouds
654,Klaksvik,FO,62.2266,-6.589,27.52,61,96,25.61,Snow
655,Baturaja,ID,-4.1333,104.1667,80.85,85,94,5.03,Clouds
656,That Phanom,TH,16.9364,104.7104,78.82,47,8,16.17,Clear
657,Sri Aman,MY,1.2376,111.4621,86.09,62,40,9.22,Clouds
658,Bauchi,NG,10.5,10.0,68.99,21,100,8.12,Clouds
659,Lianzhou,CN,24.7811,112.3825,59.38,50,9,6.04,Clear
660,Vao,NC,-22.6667,167.4833,78.48,80,4,13.76,Rain
661,Barcelona,ES,41.3888,2.159,62.91,63,0,6.91,Clear
662,Nanyamba,TZ,-10.6833,39.8333,91.53,41,79,4.59,Clouds
663,Hamamatsu,JP,34.7,137.7333,47.82,55,3,7.0,Clear
664,Pangkalanbuun,ID,-2.6833,111.6167,90.07,45,100,5.57,Clouds
665,Presidencia Roque Saenz Pena,AR,-26.7852,-60.4388,75.4,44,100,5.68,Clouds
666,Luancheng,CN,37.8792,114.6517,48.36,19,0,2.57,Clear
667,Ca Mau,VN,9.1769,105.15,83.55,48,100,5.21,Clouds
668,Khoy,IR,38.5504,44.9535,37.92,48,0,2.3,Clear
669,Aras,ES,42.5617,-2.356,47.75,93,0,3.44,Clear
